{
  "cities": [
    "Москва",
    "Киров",
    "Иркутск",
    "Новосибирск",
    "Екатеринбург",
    "Сургут",
    "Санкт-Петербург",
    "Ленинградская область"
  ],
  "lpus": [
    {
      "title": "ФГБУ НМИЦ онкологии им. Н.Н. Блохина",
      "city": 0,
      "address": "Каширское ш., д. 23, Москва",
      "lat": 55.659470689521704,
      "lng": 37.643878956114335
    },
    {
      "title": "НМХЦ Пирогова",
      "city": 0,
      "address": "Нижняя Первомайская ул., 70, Москва",
      "lat": 55.79051718056347,
      "lng": 37.820298027283364
    },
    {
      "title": "ФМБЦ им. А.И. Бурназяна",
      "city": 0,
      "address": "ул. Маршала Новикова, д. 23, Москва",
      "lat": 55.79998341956218,
      "lng": 37.45569975612021
    },
    {
      "title": "НМИЦ гематологии",
      "city": 0,
      "address": "Новый Зыковский проезд, д.4А,  Москва",
      "lat": 55.801359389701325,
      "lng": 37.55200912728387
    },
    {
      "title": "ГКБ №52",
      "city": 0,
      "address": "ул. Пехотная, д.3, Москва",
      "lat": 55.80072201095512,
      "lng": 37.4820918272837
    },
    {
      "title": "ГКБ им.С.П.Боткина",
      "city": 0,
      "address": "2-й Боткинский пр-д, д. 5, Москва",
      "lat": 55.78138031379554,
      "lng": 37.5547872561195
    },
    {
      "title": "ГВКГ Бурденко",
      "city": 0,
      "address": "Госпитальная пл., д.3",
      "lat": 55.77143651071356,
      "lng": 37.69682997146494
    },
    {
      "title": "НМИЦ ДГОИ им. Д Рогачева",
      "city": 0,
      "address": "ул. Саморы Машела, д. 1,",
      "lat": 55.65242017385558,
      "lng": 37.491974398441045
    },
    {
      "title": "Кировский научно-исследовательский институт гематологии и переливания крови Федерального медико-биологического агентства",
      "city": 1,
      "address": "Красноармейская ул., д.72,",
      "lat": 58.59089845231918,
      "lng": 49.661742728857824
    },
    {
      "title": "Иркутский областной онкологический диспансер",
      "city": 2,
      "address": "улица Фрунзе, 32",
      "lat": 52.30938606087522,
      "lng": 104.30994968606825
    },
    {
      "title": "Клиника Иммунопатологии НИИФКИ, научно-консультативный отдел",
      "city": 3,
      "address": "г. Новосибирск, ул.Залесского 2/1",
      "lat": 55.06734448324169,
      "lng": 82.93018035457065
    },
    {
      "title": "ГБУЗ \"Свердловская областная клиническая больница №1\"",
      "city": 4,
      "address": "ул.Волгоградская, д.185",
      "lat": 56.809596106245756,
      "lng": 60.562467094068985
    },
    {
      "title": "Сургутская окружная клиническая больница",
      "city": 5,
      "address": "Сургут, ул.Энергетиков, д.20",
      "lat": 61.241686412901494,
      "lng": 73.40103513500239
    },
    {
      "title": "НИИ детской онкологии, гематологии и трансплантологии имени Р. М. Горбачевой",
      "city": 6,
      "address": "Рентгена, улица д.12",
      "lat": 59.96593035242594,
      "lng": 30.32594278869112
    },
    {
      "title": "ФГБУ \"НМИЦ им. В. А. Алмазова» Минздрава России\"",
      "city": 6,
      "address": "Аккуратова, улица д.2",
      "lat": 60.015288751149974,
      "lng": 30.30331521462695
    },
    {
      "title": "ФГБУ \"Национальный медицинский исследовательский центр онкологии имени Н.Н.Петрова\" Министерства здравоохранения Российской Федерации",
      "city": 6,
      "address": "пос.Песочный, ул.Ленинградская, д.68",
      "lat": 60.119262147937455,
      "lng": 30.179918274313206
    },
    {
      "title": "ГКБ №31",
      "city": 6,
      "address": "Динамо пр-кт, д.3",
      "lat": 59.972322588566584,
      "lng": 30.280155309622774
    },
    {
      "title": "ФГБУ РосНИИГТ ФМБА России",
      "city": 6,
      "address": "Советская 2-я ул., улица д.16",
      "lat": 59.930777095802284,
      "lng": 30.37195323636542
    },
    {
      "title": "Государственное бюджетное учреждение здравоохранения Ленинградская областная клиническая больница",
      "city": 7,
      "address": "пр. Луначарского, 45-49",
      "lat": 60.03682368063149,
      "lng": 30.35861589863047
    }
  ]
}
